{"dupont circle":{"Address":{"City":"Washington","State":"DC","Street":"1525 20th St. NW","Zip":"20036"},"Code":"A03","Lat":38.9095980575,"LineCode1":"RD","LineCode2":null,"LineCode3":null,"LineCode4":null,"Lon":-77.0434143597,"Name":"Dupont Circle","StationTogether1":"","StationTogether2":""},"farragut north":{"Address":{"City":"Washington","State":"DC","Street":"1001 Connecticut Avenue NW","Zip":"20036"},"Code":"A02","Lat":38.9032019462,"LineCode1":"RD","LineCode2":null,"LineCode3":null,"LineCode4":null,"Lon":-77.0397008272,"Name":"Farragut North","StationTogether1":"","StationTogether2":""},"metro center":{"Address":{"City":"Washington","State":"DC","Street":"607 13th St. NW","Zip":"20005"},"Code":"C01","Lat":38.8983144732,"LineCode1":"BL","LineCode2":"OR","LineCode3":"SV","LineCode4":null,"Lon":-77.0280779971,"Name":"Metro Center","StationTogether1":"A01","StationTogether2":""},"stadium armory":{"Address":{"City":"Washington","State":"DC","Street":"192 19th St. SE","Zip":"20003"},"Code":"D08","Lat":38.8867090898,"LineCode1":"BL","LineCode2":"OR","LineCode3":"SV","LineCode4":null,"Lon":-76.9770889014,"Name":"Stadium Armory","StationTogether1":"","StationTogether2":""},"tenleytown":{"Address":{"City":"Washington","State":"DC","Street":"4501 Wisconsin Avenue NW","Zip":"20016"},"Code":"A07","Lat":38.9488514351,"LineCode1":"RD","LineCode2":null,"LineCode3":null,"LineCode4":null,"Lon":-77.0795873255,"Name":"Tenleytown","StationTogether1":"","StationTogether2":""},"van ness udc":{"Address":{"City":"Washington","State":"DC","Street":"4200 Connecticut Avenue NW","Zip":"20008"},"Code":"A06","Lat":38.9432652883,"LineCode1":"RD","LineCode2":null,"LineCode3":null,"LineCode4":null,"Lon":-77.0629861805,"Name":"Van Ness UDC","StationTogether1":"","StationTogether2":""},"cleveland park":{"Address":{"City":"Washington","State":"DC","Street":"3599 Connecticut Avenue NW","Zip":"20008"},"Code":"A05","Lat":38.9347628908,"LineCode1":"RD","LineCode2":null,"LineCode3":null,"LineCode4":null,"Lon":-77.0580425191,"Name":"Cleveland Park","StationTogether1":"","StationTogether2":""},"woodley park zoo":{"Address":{"City":"Washington","State":"DC","Street":"2700 Connecticut Ave., NW","Zip":"20008"},"Code":"A04","Lat":38.9250851371,"LineCode1":"RD","LineCode2":null,"LineCode3":null,"LineCode4":null,"Lon":-77.0524180207,"Name":"Woodley Park Zoo","StationTogether1":"","StationTogether2":""},"national arpt":{"Address":{"City":"Arlington","State":"VA","Street":"2400 S. Smith Blvd.","Zip":"22202"},"Code":"C10","Lat":38.8534163859,"LineCode1":"BL","LineCode2":"YL","LineCode3":null,"LineCode4":null,"Lon":-77.0440422943,"Name":"National Arpt","StationTogether1":"","StationTogether2":""},"greenbelt":{"Address":{"City":"Greenbelt","State":"MD","Street":"5717 Greenbelt Metro Drive","Zip":"20740"},"Code":"E10","Lat":39.0111458605,"LineCode1":"GR","LineCode2":null,"LineCode3":null,"LineCode4":null,"Lon":-76.9110575731,"Name":"Greenbelt","StationTogether1":"","StationTogether2":""},"braddock road":{"Address":{"City":"Alexandria","State":"VA","Street":"700 N. West St.","Zip":"22301"},"Code":"C12","Lat":38.8141436672,"LineCode1":"BL","LineCode2":"YL","LineCode3":null,"LineCode4":null,"Lon":-77.053667574,"Name":"Braddock Road","StationTogether1":"","StationTogether2":""},"silver spring":{"Address":{"City":"Silver Spring","State":"MD","Street":"8400 Colesville Road","Zip":"20910"},"Code":"B08","Lat":38.9939493747,"LineCode1":"RD","LineCode2":null,"LineCode3":null,"LineCode4":null,"Lon":-77.0310178268,"Name":"Silver Spring","StationTogether1":"","StationTogether2":""},"forest glen":{"Address":{"City":"Forest Glen","State":"MD","Street":"9730 Georgia Avenue","Zip":"20910"},"Code":"B09","Lat":39.0149542752,"LineCode1":"RD","LineCode2":null,"LineCode3":null,"LineCode4":null,"Lon":-77.0429165548,"Name":"Forest Glen","StationTogether1":"","StationTogether2":""},"minnesota avenue":{"Address":{"City":"Washington","State":"DC","Street":"4000 Minnesota Avenue NE","Zip":"20019"},"Code":"D09","Lat":38.899191223,"LineCode1":"OR","LineCode2":null,"LineCode3":null,"LineCode4":null,"Lon":-76.9467477336,"Name":"Minnesota Avenue","StationTogether1":"","StationTogether2":""},"eastern market":{"Address":{"City":"Washington","State":"DC","Street":"701 Pennsylvania Avenue SE","Zip":"20003"},"Code":"D06","Lat":38.8846222608,"LineCode1":"BL","LineCode2":"OR","LineCode3":"SV","LineCode4":null,"Lon":-76.9960011267,"Name":"Eastern Market","StationTogether1":"","StationTogether2":""},"potomac avenue":{"Address":{"City":"Washington","State":"DC","Street":"700 14th Street SE","Zip":"20003"},"Code":"D07","Lat":38.8812632736,"LineCode1":"BL","LineCode2":"OR","LineCode3":"SV","LineCode4":null,"Lon":-76.9854953196,"Name":"Potomac Avenue","StationTogether1":"","StationTogether2":""},"federal center sw":{"Address":{"City":"Washington","State":"DC","Street":"401 3rd Street SW","Zip":"20024"},"Code":"D04","Lat":38.8850723551,"LineCode1":"BL","LineCode2":"OR","LineCode3":"SV","LineCode4":null,"Lon":-77.0158682169,"Name":"Federal Center SW","StationTogether1":"","StationTogether2":""},"capitol south":{"Address":{"City":"Washington","State":"DC","Street":"355 First Street SE","Zip":"20003"},"Code":"D05","Lat":38.8850625009,"LineCode1":"BL","LineCode2":"OR","LineCode3":"SV","LineCode4":null,"Lon":-77.0051394199,"Name":"Capitol South","StationTogether1":"","StationTogether2":""},"smithsonian":{"Address":{"City":"Washington","State":"DC","Street":"1200 Independence Avenue SW","Zip":"20004"},"Code":"D02","Lat":38.888018702,"LineCode1":"BL","LineCode2":"OR","LineCode3":"SV","LineCode4":null,"Lon":-77.0280662342,"Name":"Smithsonian","StationTogether1":"","StationTogether2":""},"l'enfant plaza":{"Address":{"City":"Washington","State":"DC","Street":"600 Maryland Avenue SW","Zip":"20024"},"Code":"F03","Lat":38.8848377279,"LineCode1":"GR","LineCode2":"YL","LineCode3":null,"LineCode4":null,"Lon":-77.021908484,"Name":"L'Enfant Plaza","StationTogether1":"D03","StationTogether2":""},"gallery place":{"Address":{"City":"Washington","State":"DC","Street":"630 H St. NW","Zip":"20001"},"Code":"F01","Lat":38.8983168097,"LineCode1":"GR","LineCode2":"YL","LineCode3":null,"LineCode4":null,"Lon":-77.0219153904,"Name":"Gallery Place","StationTogether1":"B01","StationTogether2":""},"judiciary square":{"Address":{"City":"Washington","State":"DC","Street":"450 F Street NW","Zip":"20001"},"Code":"B02","Lat":38.8960903176,"LineCode1":"RD","LineCode2":null,"LineCode3":null,"LineCode4":null,"Lon":-77.0166389566,"Name":"Judiciary Square","StationTogether1":"","StationTogether2":""},"union station":{"Address":{"City":"Washington","State":"DC","Street":"701 First St. NE","Zip":"20002"},"Code":"B03","Lat":38.8977660392,"LineCode1":"RD","LineCode2":null,"LineCode3":null,"LineCode4":null,"Lon":-77.0074142921,"Name":"Union Station","StationTogether1":"","StationTogether2":""},"rhode island avenue":{"Address":{"City":"Washington","State":"DC","Street":"919 Rhode Island Avenue NE","Zip":"20018"},"Code":"B04","Lat":38.9210596891,"LineCode1":"RD","LineCode2":null,"LineCode3":null,"LineCode4":null,"Lon":-76.9959369166,"Name":"Rhode Island Avenue","StationTogether1":"","StationTogether2":""},"brookland":{"Address":{"City":"Washington","State":"DC","Street":"801 Michigan Avenue NE","Zip":"20017"},"Code":"B05","Lat":38.9332109913,"LineCode1":"RD","LineCode2":null,"LineCode3":null,"LineCode4":null,"Lon":-76.9945342851,"Name":"Brookland","StationTogether1":"","StationTogether2":""},"fort totten":{"Address":{"City":"Washington","State":"DC","Street":"550 Galloway Street NE","Zip":"20011"},"Code":"E06","Lat":38.9518467675,"LineCode1":"GR","LineCode2":"YL","LineCode3":null,"LineCode4":null,"Lon":-77.0022030768,"Name":"Fort Totten","StationTogether1":"B06","StationTogether2":""},"takoma":{"Address":{"City":"Washington","State":"DC","Street":"327 Cedar Street NW","Zip":"20012"},"Code":"B07","Lat":38.976078531,"LineCode1":"RD","LineCode2":null,"LineCode3":null,"LineCode4":null,"Lon":-77.0181766987,"Name":"Takoma","StationTogether1":"","StationTogether2":""},"landover":{"Address":{"City":"Hyattsville","State":"MD","Street":"3000 Pennsy Drive","Zip":"20785"},"Code":"D12","Lat":38.9335062344,"LineCode1":"OR","LineCode2":null,"LineCode3":null,"LineCode4":null,"Lon":-76.8911979676,"Name":"Landover","StationTogether1":"","StationTogether2":""},"king street":{"Address":{"City":"Alexandria","State":"VA","Street":"1900 King Street","Zip":"22301"},"Code":"C13","Lat":38.8065861172,"LineCode1":"BL","LineCode2":"YL","LineCode3":null,"LineCode4":null,"Lon":-77.0608112085,"Name":"King Street","StationTogether1":"","StationTogether2":""},"clarendon":{"Address":{"City":"Arlington","State":"VA","Street":"3100 Wilson Blvd","Zip":"22201"},"Code":"K02","Lat":38.886704839,"LineCode1":"OR","LineCode2":"SV","LineCode3":null,"LineCode4":null,"Lon":-77.0953940983,"Name":"Clarendon","StationTogether1":"","StationTogether2":""},"deanwood":{"Address":{"City":"Washington","State":"DC","Street":"4720 Minnesota Avenue NE","Zip":"20019"},"Code":"D10","Lat":38.9081784965,"LineCode1":"OR","LineCode2":null,"LineCode3":null,"LineCode4":null,"Lon":-76.935256783,"Name":"Deanwood","StationTogether1":"","StationTogether2":""},"college park":{"Address":{"City":"College Park","State":"MD","Street":"4931 Calvert Road","Zip":"20740"},"Code":"E09","Lat":38.9786336339,"LineCode1":"GR","LineCode2":null,"LineCode3":null,"LineCode4":null,"Lon":-76.9281249818,"Name":"College Park","StationTogether1":"","StationTogether2":""},"huntington":{"Address":{"City":"Huntington","State":"VA","Street":"2501 Huntington Ave","Zip":"22303"},"Code":"C15","Lat":38.7939158529,"LineCode1":"YL","LineCode2":null,"LineCode3":null,"LineCode4":null,"Lon":-77.0752057891,"Name":"Huntington","StationTogether1":"","StationTogether2":""},"ballston":{"Address":{"City":"Arlington","State":"VA","Street":"4230 Fairfax Drive","Zip":"22201"},"Code":"K04","Lat":38.8821828738,"LineCode1":"OR","LineCode2":"SV","LineCode3":null,"LineCode4":null,"Lon":-77.113168835,"Name":"Ballston","StationTogether1":"","StationTogether2":""},"largo town center":{"Address":{"City":"Largo","State":"MD","Street":"Largo Town Center 9000 Lottsford Road","Zip":"20774"},"Code":"G05","Lat":38.9050688072,"LineCode1":"BL","LineCode2":"SV","LineCode3":null,"LineCode4":null,"Lon":-76.8420375202,"Name":"Largo Town Center","StationTogether1":"","StationTogether2":""},"morgan blvd":{"Address":{"City":"Landover","State":"MD","Street":"300 Garrett Morgan Blvd.","Zip":"20785"},"Code":"G04","Lat":38.8938349282,"LineCode1":"BL","LineCode2":"SV","LineCode3":null,"LineCode4":null,"Lon":-76.8680747681,"Name":"Morgan Blvd","StationTogether1":"","StationTogether2":""},"court house":{"Address":{"City":"Arlington","State":"VA","Street":"2100 Wilson Blvd","Zip":"22201"},"Code":"K01","Lat":38.8901755312,"LineCode1":"OR","LineCode2":"SV","LineCode3":null,"LineCode4":null,"Lon":-77.087131231,"Name":"Court House","StationTogether1":"","StationTogether2":""},"benning road":{"Address":{"City":"Washington","State":"DC","Street":"4500 Benning Road","Zip":"20019"},"Code":"G01","Lat":38.890975676,"LineCode1":"BL","LineCode2":"SV","LineCode3":null,"LineCode4":null,"Lon":-76.9383648681,"Name":"Benning Road","StationTogether1":"","StationTogether2":""},"branch avenue":{"Address":{"City":"Suitland","State":"MD","Street":"4704 Old Soper Road","Zip":"20746"},"Code":"F11","Lat":38.8264463483,"LineCode1":"GR","LineCode2":null,"LineCode3":null,"LineCode4":null,"Lon":-76.9114642177,"Name":"Branch Avenue","StationTogether1":"","StationTogether2":""},"addison road":{"Address":{"City":"Capitol Heights","State":"MD","Street":"100 Addison Road S.","Zip":"20743"},"Code":"G03","Lat":38.8867478168,"LineCode1":"BL","LineCode2":"SV","LineCode3":null,"LineCode4":null,"Lon":-76.89410791,"Name":"Addison Road","StationTogether1":"","StationTogether2":""},"capitol heights":{"Address":{"City":"Capitol Heights","State":"MD","Street":"133 Central Avenue","Zip":"20743"},"Code":"G02","Lat":38.8894658568,"LineCode1":"BL","LineCode2":"SV","LineCode3":null,"LineCode4":null,"Lon":-76.9118081145,"Name":"Capitol Heights","StationTogether1":"","StationTogether2":""},"dunn loring":{"Address":{"City":"Vienna","State":"VA","Street":"2700 Gallows Road","Zip":"22180"},"Code":"K07","Lat":38.8836251359,"LineCode1":"OR","LineCode2":null,"LineCode3":null,"LineCode4":null,"Lon":-77.2271606721,"Name":"Dunn Loring","StationTogether1":"","StationTogether2":""},"w falls church":{"Address":{"City":"Falls Church","State":"VA","Street":"7040 Haycock Road","Zip":"22043"},"Code":"K06","Lat":38.900780551,"LineCode1":"OR","LineCode2":null,"LineCode3":null,"LineCode4":null,"Lon":-77.1890948225,"Name":"W Falls Church","StationTogether1":"","StationTogether2":""},"cheverly":{"Address":{"City":"Cheverly","State":"MD","Street":"5501 Columbia Park","Zip":"20785"},"Code":"D11","Lat":38.9166318546,"LineCode1":"OR","LineCode2":null,"LineCode3":null,"LineCode4":null,"Lon":-76.916628044,"Name":"Cheverly","StationTogether1":"","StationTogether2":""},"vienna":{"Address":{"City":"Fairfax","State":"VA","Street":"9550 Saintsbury Drive","Zip":"22031"},"Code":"K08","Lat":38.8776011238,"LineCode1":"OR","LineCode2":null,"LineCode3":null,"LineCode4":null,"Lon":-77.2726222569,"Name":"Vienna","StationTogether1":"","StationTogether2":""},"twinbrook":{"Address":{"City":"Rockville","State":"MD","Street":"1600 Chapman Avenue","Zip":"20852"},"Code":"A13","Lat":39.0624676517,"LineCode1":"RD","LineCode2":null,"LineCode3":null,"LineCode4":null,"Lon":-77.1208179517,"Name":"Twinbrook","StationTogether1":"","StationTogether2":""},"white flint":{"Address":{"City":"Rockville","State":"MD","Street":"5500 Marinelli Road","Zip":"20852"},"Code":"A12","Lat":39.0481513573,"LineCode1":"RD","LineCode2":null,"LineCode3":null,"LineCode4":null,"Lon":-77.112829859,"Name":"White Flint","StationTogether1":"","StationTogether2":""},"grosvenor":{"Address":{"City":"Bethesda","State":"MD","Street":"10300 Rockville Pike","Zip":"20852"},"Code":"A11","Lat":39.02926895,"LineCode1":"RD","LineCode2":null,"LineCode3":null,"LineCode4":null,"Lon":-77.10384972,"Name":"Grosvenor","StationTogether1":"","StationTogether2":""},"medical center":{"Address":{"City":"Bethesda","State":"MD","Street":"8810 Rockville Pike","Zip":"20814"},"Code":"A10","Lat":39.0000564843,"LineCode1":"RD","LineCode2":null,"LineCode3":null,"LineCode4":null,"Lon":-77.0969522905,"Name":"Medical Center","StationTogether1":"","StationTogether2":""},"shady grove":{"Address":{"City":"Rockville","State":"MD","Street":"15903 Somerville Drive","Zip":"20855"},"Code":"A15","Lat":39.1199273249,"LineCode1":"RD","LineCode2":null,"LineCode3":null,"LineCode4":null,"Lon":-77.1646273343,"Name":"Shady Grove","StationTogether1":"","StationTogether2":""},"rockville":{"Address":{"City":"Rockville","State":"MD","Street":"251 Hungerford Drive","Zip":"20850"},"Code":"A14","Lat":39.0843216075,"LineCode1":"RD","LineCode2":null,"LineCode3":null,"LineCode4":null,"Lon":-77.1461253392,"Name":"Rockville","StationTogether1":"","StationTogether2":""},"spring hill":{"Address":{"City":"Vienna","State":"VA","Street":"1576 Spring Hill Road","Zip":"22182"},"Code":"N04","Lat":38.928872,"LineCode1":"SV","LineCode2":null,"LineCode3":null,"LineCode4":null,"Lon":-77.241472,"Name":"Spring Hill","StationTogether1":"","StationTogether2":""},"wiehle-reston east":{"Address":{"City":"Reston","State":"VA","Street":"1862 Wiehle Avenue","Zip":"20190"},"Code":"N06","Lat":38.94778,"LineCode1":"SV","LineCode2":null,"LineCode3":null,"LineCode4":null,"Lon":-77.34027,"Name":"Wiehle-Reston East","StationTogether1":"","StationTogether2":""},"mclean":{"Address":{"City":"McLean","State":"VA","Street":"1824 Dolley Madison Boulevard","Zip":"22102"},"Code":"N01","Lat":38.924432,"LineCode1":"SV","LineCode2":null,"LineCode3":null,"LineCode4":null,"Lon":-77.210295,"Name":"McLean","StationTogether1":"","StationTogether2":""},"tysons corner":{"Address":{"City":"McLean","State":"VA","Street":"1943 Chain Bridge Road","Zip":"22102"},"Code":"N02","Lat":38.920496,"LineCode1":"SV","LineCode2":null,"LineCode3":null,"LineCode4":null,"Lon":-77.222262,"Name":"Tysons Corner","StationTogether1":"","StationTogether2":""},"greensboro":{"Address":{"City":"Vienna","State":"VA","Street":"8305 Leesburg Pike","Zip":"22182"},"Code":"N03","Lat":38.921732,"LineCode1":"SV","LineCode2":null,"LineCode3":null,"LineCode4":null,"Lon":-77.234607,"Name":"Greensboro","StationTogether1":"","StationTogether2":""},"new york avenue":{"Address":{"City":"Washington","State":"DC","Street":"200 Florida Ave N.E.","Zip":"20002"},"Code":"B35","Lat":38.9070162121,"LineCode1":"RD","LineCode2":null,"LineCode3":null,"LineCode4":null,"Lon":-77.0030204472,"Name":"New York Avenue","StationTogether1":"","StationTogether2":""},"shaw":{"Address":{"City":"Washington","State":"DC","Street":"1701 8th St. NW","Zip":"20001"},"Code":"E02","Lat":38.9134768711,"LineCode1":"GR","LineCode2":"YL","LineCode3":null,"LineCode4":null,"Lon":-77.0219117007,"Name":"Shaw","StationTogether1":"","StationTogether2":""},"crystal city":{"Address":{"City":"Arlington","State":"VA","Street":"1750 South Clark St.","Zip":"22202"},"Code":"C09","Lat":38.8579043204,"LineCode1":"BL","LineCode2":"YL","LineCode3":null,"LineCode4":null,"Lon":-77.0502898097,"Name":"Crystal City","StationTogether1":"","StationTogether2":""},"pentagon city":{"Address":{"City":"Arlington","State":"VA","Street":"1250 South Hayes St.","Zip":"22202"},"Code":"C08","Lat":38.8618823867,"LineCode1":"BL","LineCode2":"YL","LineCode3":null,"LineCode4":null,"Lon":-77.0595389215,"Name":"Pentagon City","StationTogether1":"","StationTogether2":""},"prince georges plaza":{"Address":{"City":"Hyattsville","State":"MD","Street":"3575 East West Highway","Zip":"20782"},"Code":"E08","Lat":38.9653854458,"LineCode1":"GR","LineCode2":null,"LineCode3":null,"LineCode4":null,"Lon":-76.9558815078,"Name":"Prince Georges Plaza","StationTogether1":"","StationTogether2":""},"west hyattsville":{"Address":{"City":"Hyattsville","State":"MD","Street":"2700 Hamilton St.","Zip":"20782"},"Code":"E07","Lat":38.9550401707,"LineCode1":"GR","LineCode2":null,"LineCode3":null,"LineCode4":null,"Lon":-76.9695766751,"Name":"West Hyattsville","StationTogether1":"","StationTogether2":""},"georgia avenue":{"Address":{"City":"Washington","State":"DC","Street":"3700 Georgia Avenue NW","Zip":"20010"},"Code":"E05","Lat":38.9374346301,"LineCode1":"GR","LineCode2":"YL","LineCode3":null,"LineCode4":null,"Lon":-77.023460904,"Name":"Georgia Avenue","StationTogether1":"","StationTogether2":""},"columbia heights":{"Address":{"City":"Washington","State":"DC","Street":"3030 14th St. NW","Zip":"20009"},"Code":"E04","Lat":38.9278379675,"LineCode1":"GR","LineCode2":"YL","LineCode3":null,"LineCode4":null,"Lon":-77.0325521177,"Name":"Columbia Heights","StationTogether1":"","StationTogether2":""},"u street":{"Address":{"City":"Washington","State":"DC","Street":"1240 U Street NW","Zip":"20009"},"Code":"E03","Lat":38.9170023992,"LineCode1":"GR","LineCode2":"YL","LineCode3":null,"LineCode4":null,"Lon":-77.0274958929,"Name":"U Street","StationTogether1":"","StationTogether2":""},"mt vernon sq":{"Address":{"City":"Washington","State":"DC","Street":"700 M St. NW","Zip":"20001"},"Code":"E01","Lat":38.9064368149,"LineCode1":"GR","LineCode2":"YL","LineCode3":null,"LineCode4":null,"Lon":-77.0219143803,"Name":"Mt Vernon Sq","StationTogether1":"","StationTogether2":""},"farragut west":{"Address":{"City":"Washington","State":"DC","Street":"900 18th St. NW","Zip":"20006"},"Code":"C03","Lat":38.9013128941,"LineCode1":"BL","LineCode2":"OR","LineCode3":"SV","LineCode4":null,"Lon":-77.0406954151,"Name":"Farragut West","StationTogether1":"","StationTogether2":""},"mcpherson square":{"Address":{"City":"Washington","State":"DC","Street":"1400 I St. NW","Zip":"20005"},"Code":"C02","Lat":38.9013327968,"LineCode1":"BL","LineCode2":"OR","LineCode3":"SV","LineCode4":null,"Lon":-77.0336341721,"Name":"McPherson Square","StationTogether1":"","StationTogether2":""},"rosslyn":{"Address":{"City":"Arlington","State":"VA","Street":"1850 N. Moore Street","Zip":"22209"},"Code":"C05","Lat":38.8959790962,"LineCode1":"BL","LineCode2":"OR","LineCode3":"SV","LineCode4":null,"Lon":-77.0709086853,"Name":"Rosslyn","StationTogether1":"","StationTogether2":""},"federal triangle":{"Address":{"City":"Washington","State":"DC","Street":"302 12th St. NW","Zip":"20004"},"Code":"D01","Lat":38.8931808718,"LineCode1":"BL","LineCode2":"OR","LineCode3":"SV","LineCode4":null,"Lon":-77.0281319984,"Name":"Federal Triangle","StationTogether1":"","StationTogether2":""},"pentagon":{"Address":{"City":"Arlington","State":"VA","Street":"2 South Rotary Road","Zip":"22202"},"Code":"C07","Lat":38.8694627012,"LineCode1":"BL","LineCode2":"YL","LineCode3":null,"LineCode4":null,"Lon":-77.0537156734,"Name":"Pentagon","StationTogether1":"","StationTogether2":""},"arlington cemetery":{"Address":{"City":"Arlington","State":"VA","Street":"1000 North Memorial Drive","Zip":"22211"},"Code":"C06","Lat":38.8846868585,"LineCode1":"BL","LineCode2":null,"LineCode3":null,"LineCode4":null,"Lon":-77.0628101291,"Name":"Arlington Cemetery","StationTogether1":"","StationTogether2":""},"foggy bottom":{"Address":{"City":"Washington","State":"DC","Street":"2301 I St. NW","Zip":"20037"},"Code":"C04","Lat":38.9006980092,"LineCode1":"BL","LineCode2":"OR","LineCode3":"SV","LineCode4":null,"Lon":-77.050277739,"Name":"Foggy Bottom","StationTogether1":"","StationTogether2":""},"virginia square":{"Address":{"City":"Arlington","State":"VA","Street":"3600 Fairfax Drive","Zip":"22201"},"Code":"K03","Lat":38.8833661518,"LineCode1":"OR","LineCode2":"SV","LineCode3":null,"LineCode4":null,"Lon":-77.1029772942,"Name":"Virginia Square","StationTogether1":"","StationTogether2":""},"franconia-springf'ld":{"Address":{"City":"Springfield","State":"VA","Street":"6880 Frontier Drive","Zip":"22150"},"Code":"J03","Lat":38.7665218926,"LineCode1":"BL","LineCode2":null,"LineCode3":null,"LineCode4":null,"Lon":-77.1679701804,"Name":"Franconia-Springf'ld","StationTogether1":"","StationTogether2":""},"new carrollton":{"Address":{"City":"New Carrollton","State":"MD","Street":"4700 Garden City Drive","Zip":"20784"},"Code":"D13","Lat":38.9477848558,"LineCode1":"OR","LineCode2":null,"LineCode3":null,"LineCode4":null,"Lon":-76.8718412865,"Name":"New Carrollton","StationTogether1":"","StationTogether2":""},"glenmont":{"Address":{"City":"Silver Spring","State":"MD","Street":"12501 Georgia Avenue","Zip":"20906"},"Code":"B11","Lat":39.0617837655,"LineCode1":"RD","LineCode2":null,"LineCode3":null,"LineCode4":null,"Lon":-77.0535573593,"Name":"Glenmont","StationTogether1":"","StationTogether2":""},"e falls church":{"Address":{"City":"Arlington","State":"VA","Street":"2001 N. Sycamore St.","Zip":"22205"},"Code":"K05","Lat":38.8859531663,"LineCode1":"OR","LineCode2":"SV","LineCode3":null,"LineCode4":null,"Lon":-77.1568830199,"Name":"E Falls Church","StationTogether1":"","StationTogether2":""},"southern ave":{"Address":{"City":"Temple Hills","State":"MD","Street":"1411 Southern Avenue","Zip":"20748"},"Code":"F08","Lat":38.8410857803,"LineCode1":"GR","LineCode2":null,"LineCode3":null,"LineCode4":null,"Lon":-76.9750541388,"Name":"Southern Ave","StationTogether1":"","StationTogether2":""},"naylor road":{"Address":{"City":"Temple Hills","State":"MD","Street":"3101 Branch Avenue","Zip":"20748"},"Code":"F09","Lat":38.8513013835,"LineCode1":"GR","LineCode2":null,"LineCode3":null,"LineCode4":null,"Lon":-76.9562627094,"Name":"Naylor Road","StationTogether1":"","StationTogether2":""},"eisenhower avenue":{"Address":{"City":"Alexandria","State":"VA","Street":"2400 Eisenhower Avenue","Zip":"22314"},"Code":"C14","Lat":38.8004254497,"LineCode1":"YL","LineCode2":null,"LineCode3":null,"LineCode4":null,"Lon":-77.0708743893,"Name":"Eisenhower Avenue","StationTogether1":"","StationTogether2":""},"waterfront":{"Address":{"City":"Washington","State":"DC","Street":"399 M Street SW","Zip":"20024"},"Code":"F04","Lat":38.8764618668,"LineCode1":"GR","LineCode2":null,"LineCode3":null,"LineCode4":null,"Lon":-77.0175052088,"Name":"Waterfront","StationTogether1":"","StationTogether2":""},"navy yard":{"Address":{"City":"Washington","State":"DC","Street":"200 M Street SE","Zip":"20003"},"Code":"F05","Lat":38.8764810849,"LineCode1":"GR","LineCode2":null,"LineCode3":null,"LineCode4":null,"Lon":-77.0050856513,"Name":"Navy Yard","StationTogether1":"","StationTogether2":""},"anacostia":{"Address":{"City":"Washington","State":"DC","Street":"1101 Howard Road SE","Zip":"20020"},"Code":"F06","Lat":38.8629631168,"LineCode1":"GR","LineCode2":null,"LineCode3":null,"LineCode4":null,"Lon":-76.9953707387,"Name":"Anacostia","StationTogether1":"","StationTogether2":""},"congress height":{"Address":{"City":"Washington","State":"DC","Street":"1290 Alabama Avenue SE","Zip":"20020"},"Code":"F07","Lat":38.8456577028,"LineCode1":"GR","LineCode2":null,"LineCode3":null,"LineCode4":null,"Lon":-76.9885119326,"Name":"Congress Height","StationTogether1":"","StationTogether2":""},"van dorn st":{"Address":{"City":"Alexandria","State":"VA","Street":"5690 Eisenhower Avenue","Zip":"22310"},"Code":"J02","Lat":38.799307672,"LineCode1":"BL","LineCode2":null,"LineCode3":null,"LineCode4":null,"Lon":-77.1291115237,"Name":"Van Dorn St","StationTogether1":"","StationTogether2":""},"archives":{"Address":{"City":"Washington","State":"DC","Street":"701 Pennsylvania Avenue NW","Zip":"20004"},"Code":"F02","Lat":38.8936652235,"LineCode1":"GR","LineCode2":"YL","LineCode3":null,"LineCode4":null,"Lon":-77.0219143879,"Name":"Archives","StationTogether1":"","StationTogether2":""},"wheaton":{"Address":{"City":"Silver Spring","State":"MD","Street":"11171 Georgia Avenue","Zip":"20902"},"Code":"B10","Lat":39.0375271436,"LineCode1":"RD","LineCode2":null,"LineCode3":null,"LineCode4":null,"Lon":-77.0501070535,"Name":"Wheaton","StationTogether1":"","StationTogether2":""},"suitland":{"Address":{"City":"Suitland","State":"MD","Street":"4500 Silver Hill Road","Zip":"20746"},"Code":"F10","Lat":38.8439645544,"LineCode1":"GR","LineCode2":null,"LineCode3":null,"LineCode4":null,"Lon":-76.9318701589,"Name":"Suitland","StationTogether1":"","StationTogether2":""},"bethesda":{"Address":{"City":"Bethesda","State":"MD","Street":"7450 Wisconsin Avenue","Zip":"20814"},"Code":"A09","Lat":38.9843936603,"LineCode1":"RD","LineCode2":null,"LineCode3":null,"LineCode4":null,"Lon":-77.0941291922,"Name":"Bethesda","StationTogether1":"","StationTogether2":""},"friendship heights":{"Address":{"City":"Washington","State":"DC","Street":"5337 Wisconsin Avenue NW","Zip":"20015"},"Code":"A08","Lat":38.9594838736,"LineCode1":"RD","LineCode2":null,"LineCode3":null,"LineCode4":null,"Lon":-77.084995805,"Name":"Friendship Heights","StationTogether1":"","StationTogether2":""}}
